[
    {
        "Id": "5a21b153fc2d560873053f74",
        "Name": "Playa del Carmen (y sus alrededores), Quintana Roo, Mexico",
        "SmartSearchEnum": 2,
        "Longitude": -87.0756607055664,
        "Latitude": 20.628223419189453
    },
    {
        "Id": "5a21b176fc2d5608730540ca",
        "Name": "Playa Bavaro (y sus alrededores), La Altagracia, Republica Dominicana",
        "SmartSearchEnum": 2,
        "Longitude": -68.41975402832031,
        "Latitude": 18.686187744140625
    },
    {
        "Id": "5a21b158fc2d560873053fe3",
        "Name": "Rio de Janeiro (y sus alrededores), Rio de Janeiro, Brasil",
        "SmartSearchEnum": 2,
        "Longitude": -43.209373474121094,
        "Latitude": -22.911014556884766
    },
    {
        "Id": "5a21b153fc2d560873053f63",
        "Name": "Bayahibe, La Altagracia, Republica Dominicana",
        "SmartSearchEnum": 2,
        "Longitude": -68.83969116210938,
        "Latitude": 18.36870765686035
    },
    {
        "Id": "5a21b153fc2d560873053f66",
        "Name": "Punta Cana, La Altagracia, Republica Dominicana",
        "SmartSearchEnum": 2,
        "Longitude": -68.3691635131836,
        "Latitude": 18.556550979614258
    },
    {
        "Id": "5a21b153fc2d560873053f61",
        "Name": "Varadero, Matanzas, Cuba",
        "Longitude": -81.26002502441406,
        "Latitude": 23.149578094482422
    },
    {
        "Id": "5a21b15bfc2d560873053ff4",
        "Name": "Salvador de Bahia (y sus alrededores), Bahia, Brasil",
        "SmartSearchEnum": 2,
        "Longitude": -38.48127746582031,
        "Latitude": -12.982250213623047
    },
    {
        "Id": "5a21b188fc2d56087305416c",
        "Name": "Baru, Bolivar, Colombia",
        "SmartSearchEnum": 2,
        "Longitude": -75.68504333496094,
        "Latitude": 10.141972541809082
    },
    {
        "Id": "5a21b153fc2d560873053f64",
        "Name": "Porto de Galinhas, Pernambuco, Brasil",
        "SmartSearchEnum": 2,
        "Longitude": -35.00499725341797,
        "Latitude": -8.504681587219238
    },
    {
        "Id": "5a21b157fc2d560873053fe1",
        "Name": "Cancun (y sus alrededores), Quintana Roo, Mexico",
        "SmartSearchEnum": 2,
        "Longitude": -86.8250503540039,
        "Latitude": 21.161828994750977
    },
    {
        "Id": "5a21ac88fc2d56087302a301",
        "Name": "Maragogi, Alagoas, Brasil",
        "SmartSearchEnum": 2,
        "Longitude": -35.222511291503906,
        "Latitude": -9.01182746887207
    },
    {
        "Id": "5a21b155fc2d560873053f77",
        "Name": "Madrid (y sus alrededores), Madrid, Espana",
        "SmartSearchEnum": 2,
        "Longitude": -3.703582525253296,
        "Latitude": 40.41670608520508
    },
    {
        "Id": "5a21b159fc2d560873053fec",
        "Name": "Cartagena de Indias (y sus alrededores), Bolivar, Colombia",
        "SmartSearchEnum": 2,
        "Longitude": -75.5271224975586,
        "Latitude": 10.419584274291992
    }
]